PacketCounter	SampleTimeFine	Year	Month	Day	Second	UTC_Nano	UTC_Year	UTC_Month	UTC_Day	UTC_Hour	UTC_Minute	UTC_Second	UTC_Valid	Acc_X	Acc_Y	Acc_Z	FreeAcc_E	FreeAcc_N	FreeAcc_U	AccHR_X	AccHR_Y	AccHR_Z	Gyr_X	Gyr_Y	Gyr_Z	GyrHR_X	GyrHR_Y	GyrHR_Z	Mag_X	Mag_Y	Mag_Z	VelInc_X	VelInc_Y	VelInc_Z	OriInc_q0	OriInc_q1	OriInc_q2	OriInc_q3	Pressure	Roll	Pitch	Yaw	Latitude	Longitude	Altitude	Vel_E	Vel_N	Vel_U	Temperature	GyrTemp_X	GyrTemp_Y	GyrTemp_Z
1	68098952					790000697	2023	7	21	20	8	56	0	0.002726	-0.268108	9.814113							0.002953	0.007091	0.001345							3.1e-05	-0.002683	0.098141	1.0	1.5e-05	3.5e-05	7e-06	92893.0	-1.837482	-0.569946	1.42795	-21.216660205	-44.971346354	923.114633				0.0			
22	68101052					1666	2023	7	21	20	8	57	0	0.167961	-0.509836	9.76715							0.0044	0.006589	0.000436							0.001683	-0.005101	0.097671	1.0	2.2e-05	3.3e-05	2e-06	92889.0	-1.837359	-0.568039	1.430933	-21.21666022	-44.971346345	923.112673				0.0			
122	68111052					1540	2023	7	21	20	8	58	0	0.185476	-0.244104	9.733333							-0.0021	-0.006301	0.00176							0.001852	-0.00244	0.097333	1.0	-1e-05	-3.2e-05	9e-06	92892.0	-1.847546	-0.567828	1.444314	-21.216659999	-44.971346714	922.482601				0.0			
222	68121052					1413	2023	7	21	20	8	59	0	-0.016004	-0.228627	9.827112							0.003669	0.0065	-0.003662							-0.000157	-0.002288	0.098271	1.0	1.8e-05	3.3e-05	-1.8e-05	92899.0	-1.846823	-0.566889	1.456337	-21.216660054	-44.971346715	922.627844				0.0			
322	68131052					1287	2023	7	21	20	9	0	0	0.144051	-0.48932	9.809134							0.003952	0.008107	0.00275							0.001445	-0.004895	0.098091	1.0	2e-05	4.1e-05	1.4e-05	92905.0	-1.838656	-0.558104	1.464633	-21.216660105	-44.971346738	922.741721				0.0			
422	68141052					1161	2023	7	21	20	9	1	0	0.171273	-0.44201	9.784707							0.000121	-0.002263	0.003047							0.001712	-0.00442	0.097847	1.0	1e-06	-1.1e-05	1.5e-05	92900.0	-1.819963	-0.557178	1.483223	-21.216660139	-44.97134674	922.827308				0.0			
522	68151052					1035	2023	7	21	20	9	2	0	0.106585	-0.127817	9.671599							-0.002051	-0.008905	0.003708							0.001062	-0.001277	0.096716	1.0	-1e-05	-4.5e-05	1.9e-05	92899.0	-1.812855	-0.554732	1.484125	-21.216660156	-44.971346725	922.894943				0.0			
622	68161052					908	2023	7	21	20	9	3	0	0.0368	-0.378877	9.803903							0.000938	0.006102	0.001394							0.000371	-0.003789	0.098039	1.0	5e-06	3.1e-05	7e-06	92890.0	-1.818253	-0.561368	1.484264	-21.216660187	-44.971346743	922.955959				0.0			
722	68171052					782	2023	7	21	20	9	4	0	0.195248	-0.45078	9.825961							0.003348	0.004818	-0.000585							0.001955	-0.004509	0.098259	1.0	1.7e-05	2.4e-05	-3e-06	92893.0	-1.820286	-0.575798	1.49056	-21.216660228	-44.971346738	923.001898				0.0			
822	68181052					656	2023	7	21	20	9	5	0	0.151523	-0.313819	9.714025							-0.005169	-0.002828	0.002922							0.001514	-0.003136	0.09714	1.0	-2.6e-05	-1.4e-05	1.5e-05	92893.0	-1.822773	-0.572864	1.512285	-21.216660254	-44.971346758	923.038712				0.0			
922	68191052					530	2023	7	21	20	9	6	0	-0.025188	-0.174583	9.744541							0.004885	0.004353	0.001867							-0.00025	-0.001748	0.097445	1.0	2.4e-05	2.2e-05	9e-06	92893.0	-1.824891	-0.57478	1.532455	-21.21666029	-44.971346762	923.069269				0.0			
1022	68201052					404	2023	7	21	20	9	7	0	0.120976	-0.438826	9.794091							0.006191	0.003832	0.00222							0.001212	-0.004391	0.097941	1.0	3.1e-05	1.9e-05	1.1e-05	92903.0	-1.821712	-0.586577	1.550982	-21.216660299	-44.971346765	923.088464				0.0			
1122	68211052					278	2023	7	21	20	9	8	0	0.198582	-0.420381	9.740286							-0.001379	-0.004043	0.000841							0.001984	-0.004203	0.097403	1.0	-7e-06	-2e-05	4e-06	92893.0	-1.831102	-0.60424	1.57216	-21.216660324	-44.971346749	923.094752				0.0			
1222	68221052					152	2023	7	21	20	9	9	0	0.04296	-0.133256	9.673808							0.002429	0.003122	0.003842							0.000431	-0.001334	0.096738	1.0	1.2e-05	1.6e-05	1.9e-05	92895.0	-1.816778	-0.603506	1.586106	-21.216660326	-44.971346755	923.110845				0.0			
1322	68231052					26	2023	7	21	20	9	10	0	0.174526	-0.471718	9.732667							0.002955	0.002539	0.001843							0.001747	-0.004719	0.097327	1.0	1.5e-05	1.3e-05	9e-06	92900.0	-1.818975	-0.602963	1.609309	-21.216660366	-44.971346757	923.119137				0.0			
1423	68241152					9999900	2023	7	21	20	9	11	0	0.181836	-0.495646	9.767289							0.003001	0.003665	0.002461							0.00182	-0.004958	0.097673	1.0	1.5e-05	1.8e-05	1.2e-05	92897.0	-1.816184	-0.607319	1.62458	-21.2166604	-44.971346783	923.117065				0.0			
1523	68251152					10000774	2023	7	21	20	9	12	0	0.182161	-0.277668	9.689182							-0.002452	-0.006712	0.000978							0.001818	-0.002775	0.096892	1.0	-1.2e-05	-3.4e-05	5e-06	92895.0	-1.825563	-0.607948	1.631498	-21.216660424	-44.971346793	923.124437				0.0			
1623	68261152					9999649	2023	7	21	20	9	13	0	0.013627	-0.297582	9.893492							0.001049	0.008341	-0.003382							0.00014	-0.002976	0.098935	1.0	5e-06	4.2e-05	-1.7e-05	92892.0	-1.817503	-0.60793	1.648432	-21.216660436	-44.971346779	923.126667				0.0			
1723	68271152					9999523	2023	7	21	20	9	14	0	0.1633	-0.460376	9.881655							0.00024	0.002421	0.002052							0.001634	-0.004604	0.098817	1.0	1e-06	1.2e-05	1e-05	92901.0	-1.822857	-0.604809	1.653871	-21.216660453	-44.971346783	923.126065				0.0			
1823	68281152					9999397	2023	7	21	20	9	15	0	0.222906	-0.350039	9.887071							0.000892	-0.004864	0.005371							0.002227	-0.003501	0.098871	1.0	4e-06	-2.4e-05	2.7e-05	92901.0	-1.823149	-0.594393	1.67553	-21.216660481	-44.97134674	923.120807				0.0			
1923	68291152					10000270	2023	7	21	20	9	16	0	0.01799	-0.094698	9.708968							0.002513	-0.001522	0.000352							0.000179	-0.000948	0.09709	1.0	1.3e-05	-8e-06	2e-06	92895.0	-1.817864	-0.582046	1.691119	-21.216660496	-44.97134673	923.114129				0.0			
2023	68301152					9999144	2023	7	21	20	9	17	0	0.125011	-0.502449	9.822659							0.001447	0.006794	-0.002329							0.001253	-0.005025	0.098227	1.0	7e-06	3.4e-05	-1.2e-05	92896.0	-1.823354	-0.576061	1.712503	-21.216660522	-44.971346734	923.097544				0.0			
2123	68311152					9999018	2023	7	21	20	9	18	0	0.17517	-0.357319	9.865463							-0.000699	-0.001772	0.000915							0.001751	-0.003573	0.098655	1.0	-3e-06	-9e-06	5e-06	92898.0	-1.828573	-0.574698	1.735923	-21.216660536	-44.971346747	923.085413				0.0			
2223	68321153					9998892	2023	7	21	20	9	19	0	-0.001254	-0.120702	9.665084							-0.002031	-0.000816	0.00041							-1.3e-05	-0.001206	0.096651	1.0	-1e-05	-4e-06	2e-06	92901.0	-1.824313	-0.565971	1.742346	-21.21666057	-44.971346742	923.08362				0.0			
2323	68331153					9999766	2023	7	21	20	9	20	0	0.087828	-0.456839	9.760995							0.004108	0.01468	-0.000999							0.000885	-0.00457	0.09761	1.0	2.1e-05	7.3e-05	-5e-06	92897.0	-1.83529	-0.566213	1.749894	-21.216660613	-44.971346748	923.080625				0.0			
2423	68341153					9998640	2023	7	21	20	9	21	0	0.148674	-0.275876	9.752948							-0.002117	-0.005332	0.006252							0.001484	-0.002758	0.09753	1.0	-1.1e-05	-2.7e-05	3.1e-05	92900.0	-1.847226	-0.567942	1.76905	-21.216660264	-44.971346873	922.399252				0.0			
2523	68351153					9998514	2023	7	21	20	9	22	0	0.015151	-0.062665	9.614491							0.0011	0.000845	-3.1e-05							0.000152	-0.000627	0.096145	1.0	6e-06	4e-06	-0.0	92902.0	-1.843094	-0.567396	1.77837	-21.216660316	-44.971346887	922.531752				0.0			
2623	68361153					9998388	2023	7	21	20	9	23	0	0.106958	-0.411139	9.833744							0.002449	0.003116	-0.001095							0.001071	-0.004113	0.098337	1.0	1.2e-05	1.6e-05	-5e-06	92893.0	-1.824592	-0.585703	1.792497	-21.216660361	-44.9713469	922.641224				0.0			
2723	68371153					9998262	2023	7	21	20	9	24	0	0.11439	-0.228397	9.745193							0.002891	-0.002572	0.003449							0.001143	-0.002285	0.097452	1.0	1.4e-05	-1.3e-05	1.7e-05	92899.0	-1.829283	-0.603784	1.809741	-21.216660405	-44.971346895	922.726867				0.0			
2823	68381153					9999135	2023	7	21	20	9	25	0	0.01475	-0.129184	9.526484							-0.006491	-0.006209	6.5e-05							0.000145	-0.001289	0.095265	1.0	-3.2e-05	-3.1e-05	0.0	92895.0	-1.850877	-0.616473	1.827394	-21.216660421	-44.971346878	922.79517				0.0			
2923	68391153					9998009	2023	7	21	20	9	26	0	0.017924	-0.341361	9.782188							0.003127	0.006705	0.000144							0.000183	-0.003415	0.097822	1.0	1.6e-05	3.4e-05	1e-06	92898.0	-1.844219	-0.625418	1.842444	-21.216660428	-44.971346879	922.856398				0.0			
3023	68401153					9997883	2023	7	21	20	9	27	0	0.185803	-0.456135	9.826165							-0.000209	-0.006682	0.000328							0.001855	-0.004561	0.098262	1.0	-1e-06	-3.3e-05	2e-06	92899.0	-1.842244	-0.641288	1.850001	-21.216660478	-44.971346869	922.895502				0.0			
3123	68411153					9997757	2023	7	21	20	9	28	0	0.027401	-0.134394	9.637642							0.002734	0.000559	0.00051							0.000274	-0.001345	0.096376	1.0	1.4e-05	3e-06	3e-06	92903.0	-1.838429	-0.617018	1.86714	-21.216660492	-44.971346879	922.924805				0.0			
3223	68421153					9998630	2023	7	21	20	9	29	0	0.03888	-0.303616	9.842685							0.000547	0.004843	0.001609							0.000391	-0.003036	0.098427	1.0	3e-06	2.4e-05	8e-06	92899.0	-1.836224	-0.608924	1.888049	-21.216660534	-44.971346899	922.947805				0.0			
3323	68431153					9997504	2023	7	21	20	9	30	0	0.201161	-0.502679	9.842167							0.001808	0.000421	0.001125							0.002012	-0.005028	0.098422	1.0	9e-06	2e-06	6e-06	92899.0	-1.832467	-0.599135	1.905663	-21.216660541	-44.971346904	922.965438				0.0			
3423	68441153					9997378	2023	7	21	20	9	31	0	0.006071	-0.143433	9.703461							-0.000892	-0.009036	6.8e-05							5.6e-05	-0.001434	0.097035	1.0	-4e-06	-4.5e-05	0.0	92899.0	-1.819438	-0.562095	1.924319	-21.216660557	-44.971346908	922.974026				0.0			
3523	68451153					9997252	2023	7	21	20	9	32	0	0.02618	-0.310535	9.833996							-0.000606	0.002157	0.000487							0.000263	-0.003105	0.09834	1.0	-3e-06	1.1e-05	2e-06	92905.0	-1.834604	-0.555453	1.93615	-21.21666058	-44.971346916	922.9816				0.0			
3623	68461153					9998126	2023	7	21	20	9	33	0	0.12801	-0.478788	9.900355							0.001334	0.00103	-0.000785							0.001281	-0.004789	0.099004	1.0	7e-06	5e-06	-4e-06	92904.0	-1.842518	-0.545802	1.943153	-21.216660607	-44.971346927	922.992816				0.0			
3723	68471153					9996999	2023	7	21	20	9	34	0	0.059336	-0.115643	9.706215							0.000892	-0.002457	0.003314							0.000592	-0.001157	0.097062	1.0	4e-06	-1.2e-05	1.7e-05	92905.0	-1.842714	-0.527995	1.947556	-21.216660648	-44.971346947	922.990782				0.0			
3823	68481153					9996873	2023	7	21	20	9	35	0	0.019816	-0.287876	9.849776							0.003871	0.003433	0.003363							0.0002	-0.002881	0.098498	1.0	1.9e-05	1.7e-05	1.7e-05	92894.0	-1.857666	-0.531531	1.955037	-21.216660663	-44.97134696	922.987794				0.0			
3923	68491153					9996747	2023	7	21	20	9	36	0	0.202608	-0.48625	9.943939							0.001043	0.005095	0.004322							0.002029	-0.004863	0.099439	1.0	5e-06	2.5e-05	2.2e-05	92900.0	-1.85964	-0.53801	1.976283	-21.216660708	-44.971346972	922.997713				0.0			
4023	68501153					9997621	2023	7	21	20	9	37	0	0.105023	-0.206927	9.724066							-0.001378	0.001366	-0.000145							0.001051	-0.002069	0.097241	1.0	-7e-06	7e-06	-1e-06	92900.0	-1.860587	-0.531728	1.988434	-21.216660728	-44.971346974	922.995755				0.0			
4123	68511153					9996494	2023	7	21	20	9	38	0	-0.057187	-0.21344	9.812086							0.003957	0.007435	-0.000423							-0.000568	-0.002136	0.098121	1.0	2e-05	3.7e-05	-2e-06	92903.0	-1.840357	-0.52041	2.002009	-21.216660765	-44.971347006	922.990971				0.0			
4223	68521153					9996368	2023	7	21	20	9	39	0	0.103767	-0.478839	9.829909							0.000656	0.001803	0.001554							0.001039	-0.004789	0.098299	1.0	3e-06	9e-06	8e-06	92903.0	-1.846532	-0.533645	2.006701	-21.216660804	-44.971347023	922.998757				0.0			
4323	68531153					9996242	2023	7	21	20	9	40	0	0.247157	-0.342148	9.743496							-0.00147	-0.00357	0.003275							0.00247	-0.003421	0.097435	1.0	-7e-06	-1.8e-05	1.6e-05	92898.0	-1.859626	-0.535929	2.02055	-21.216660838	-44.971347045	922.993859				0.0			
4423	68541153					9997116	2023	7	21	20	9	41	0	0.06532	-0.327223	9.760067							0.004235	0.009629	-0.002149							0.000658	-0.003274	0.097601	1.0	2.1e-05	4.8e-05	-1.1e-05	92900.0	-1.860015	-0.535129	2.037937	-21.216660866	-44.971347037	922.984606				0.0			
4523	68551153					9995990	2023	7	21	20	9	42	0	0.187338	-0.532769	9.855809							0.004969	0.006801	0.00119							0.001877	-0.00533	0.098558	1.0	2.5e-05	3.4e-05	6e-06	92898.0	-1.860808	-0.548942	2.051399	-21.216660886	-44.971347043	922.970385				0.0			
4623	68561154					9995864	2023	7	21	20	9	43	0	0.258085	-0.517112	9.793056							0.000599	-0.002767	-0.001064							0.002579	-0.005171	0.097931	1.0	3e-06	-1.4e-05	-5e-06	92905.0	-1.860858	-0.5674	2.065861	-21.216660915	-44.971347032	922.963669				0.0			
4723	68571154					9995737	2023	7	21	20	9	44	0	-0.009414	-0.093886	9.691377							-0.000376	0.000834	0.00195							-9.4e-05	-0.000939	0.096914	1.0	-2e-06	4e-06	1e-05	92901.0	-1.84959	-0.571075	2.065039	-21.216660548	-44.971346927	922.369719				0.0			
4823	68581154					9996611	2023	7	21	20	9	45	0	0.170495	-0.459151	9.934748							0.0036	0.005648	-0.00105							0.001708	-0.004593	0.099347	1.0	1.8e-05	2.8e-05	-5e-06	92904.0	-1.8373	-0.594838	2.078214	-21.216660596	-44.971346954	922.470855				0.0			
4923	68591154					9995485	2023	7	21	20	9	46	0	0.171272	-0.332402	9.88905							0.00385	-0.002602	0.000736							0.001711	-0.003326	0.09889	1.0	1.9e-05	-1.3e-05	4e-06	92899.0	-1.830176	-0.604643	2.087907	-21.216660643	-44.971346978	922.552426				0.0			
5023	68601154					9995359	2023	7	21	20	9	47	0	0.052348	-0.18409	9.603717							-0.00289	-0.007312	0.002404							0.00052	-0.00184	0.096037	1.0	-1.4e-05	-3.7e-05	1.2e-05	92900.0	-1.826646	-0.61185	2.1076	-21.216660663	-44.971346985	922.629469				0.0			
5123	68611154					9995232	2023	7	21	20	9	48	0	0.128615	-0.415533	9.759623							0.001269	0.00477	0.001156							0.001288	-0.004156	0.097596	1.0	6e-06	2.4e-05	6e-06	92901.0	-1.818622	-0.611696	2.130191	-21.216660675	-44.971346977	922.673945				0.0			
5223	68621154					9996106	2023	7	21	20	9	49	0	-0.002878	-0.109008	9.620234							0.000767	-0.002313	-0.001964							-3e-05	-0.00109	0.096202	1.0	4e-06	-1.2e-05	-1e-05	92905.0	-1.818389	-0.599517	2.141471	-21.216660695	-44.971346992	922.699872				0.0			
5323	68631154					9994980	2023	7	21	20	9	50	0	-0.0466	-0.307891	9.745137							0.000936	0.006525	0.001488							-0.000463	-0.003079	0.097451	1.0	5e-06	3.3e-05	7e-06	92898.0	-1.811463	-0.598629	2.157981	-21.216660714	-44.971347004	922.72839				0.0			
5423	68641154					9994853	2023	7	21	20	9	51	0	0.109549	-0.501087	9.881541							0.001168	0.001845	0.00213							0.001096	-0.005011	0.098815	1.0	6e-06	9e-06	1.1e-05	92901.0	-1.809821	-0.601566	2.169479	-21.216660723	-44.971346982	922.749244				0.0			
5523	68651154					9994727	2023	7	21	20	9	52	0	0.18278	-0.292259	9.864407							-0.002896	-0.009016	0.001393							0.001823	-0.002921	0.098644	1.0	-1.4e-05	-4.5e-05	7e-06	92902.0	-1.811784	-0.62325	2.186543	-21.216660737	-44.971346997	922.77173				0.0			
5623	68661154					9995600	2023	7	21	20	9	53	0	-0.009685	-0.184875	9.839395							-0.000771	0.00386	0.001639							-9.5e-05	-0.001848	0.098394	1.0	-4e-06	1.9e-05	8e-06	92895.0	-1.802094	-0.61906	2.204185	-21.216660763	-44.971347027	922.781884				0.0			
5723	68671154					9994474	2023	7	21	20	9	54	0	0.105212	-0.363318	9.846063							0.009364	0.0085	0.002532							0.001056	-0.003638	0.09846	1.0	4.7e-05	4.3e-05	1.3e-05	92905.0	-1.784751	-0.623735	2.217391	-21.216660787	-44.971347007	922.793237				0.0			
5823	68681154					9994348	2023	7	21	20	9	55	0	0.20609	-0.51125	9.823138							0.00311	0.001297	0.001023							0.002062	-0.005114	0.098231	1.0	1.6e-05	6e-06	5e-06	92901.0	-1.798643	-0.622871	2.229727	-21.21666079	-44.971347005	922.794383				0.0			
5923	68691154					9994221	2023	7	21	20	9	56	0	-0.021306	-0.109496	9.587182							-0.004837	0.00524	-0.004265							-0.000211	-0.001093	0.095872	1.0	-2.4e-05	2.6e-05	-2.1e-05	92898.0	-1.798743	-0.597522	2.240093	-21.216660812	-44.971347013	922.797664				0.0			
6023	68701154					9995095	2023	7	21	20	9	57	0	0.111156	-0.495634	9.804209							0.001196	0.002803	-0.002239							0.001113	-0.004957	0.098042	1.0	6e-06	1.4e-05	-1.1e-05	92907.0	-1.792665	-0.587877	2.269403	-21.216660811	-44.971347005	922.799353				0.0			
6123	68711154					9993969	2023	7	21	20	9	58	0	0.19849	-0.50535	9.814114							0.007623	0.00924	0.001394							0.001989	-0.005057	0.098141	1.0	3.8e-05	4.6e-05	7e-06	92905.0	-1.79645	-0.591957	2.279353	-21.216660823	-44.971347003	922.801626				0.0			
6223	68721154					9993842	2023	7	21	20	9	59	0	0.184948	-0.351021	9.834852							-0.000394	-0.006494	0.003077							0.001846	-0.00351	0.098349	1.0	-2e-06	-3.2e-05	1.5e-05	92901.0	-1.805861	-0.585335	2.290451	-21.216660821	-44.97134701	922.806712				0.0			
6323	68731154					9993716	2023	7	21	20	10	0	0	0.061347	-0.277829	9.81494							0.003797	0.009531	0.003504							0.000618	-0.00278	0.098149	1.0	1.9e-05	4.8e-05	1.8e-05	92902.0	-1.805486	-0.573462	2.309843	-21.216660838	-44.971347012	922.802176				0.0			
6423	68741154					9994590	2023	7	21	20	10	1	0	0.160209	-0.513368	9.848417							0.001612	0.006665	-0.000426							0.001605	-0.005134	0.098484	1.0	8e-06	3.3e-05	-2e-06	92908.0	-1.805253	-0.56891	2.310961	-21.216660839	-44.971347004	922.795055				0.0			
6523	68751154					9993463	2023	7	21	20	10	2	0	0.183236	-0.289669	9.888874							-0.000483	-0.002386	-0.00135							0.001831	-0.002896	0.098889	1.0	-2e-06	-1.2e-05	-7e-06	92895.0	-1.801397	-0.56245	2.320794	-21.216660863	-44.971347007	922.791207				0.0			
6623	68761154					9993337	2023	7	21	20	10	3	0	0.003995	-0.106588	9.710258							0.003457	-0.004119	0.000687							3.8e-05	-0.001068	0.097103	1.0	1.7e-05	-2.1e-05	3e-06	92903.0	-1.802042	-0.552448	2.349595	-21.216660883	-44.971347021	922.791611				0.0			
6723	68771154					9993210	2023	7	21	20	10	4	0	0.205704	-0.51798	9.831629							-0.000339	0.003674	0.003412							0.002059	-0.00518	0.098316	1.0	-2e-06	1.8e-05	1.7e-05	92905.0	-1.807851	-0.552652	2.366433	-21.216660902	-44.971347048	922.794566				0.0			
6823	68781154					9994084	2023	7	21	20	10	5	0	0.105077	-0.228007	9.658978							-0.002124	-0.006195	-0.000959							0.001048	-0.002279	0.09659	1.0	-1.1e-05	-3.1e-05	-5e-06	92902.0	-1.813175	-0.555624	2.382356	-21.21666091	-44.971347061	922.796738				0.0			
6923	68791155					9992958	2023	7	21	20	10	6	0	0.006802	-0.092402	9.63225							0.00059	-0.000986	0.001844							6.8e-05	-0.000924	0.096322	1.0	3e-06	-5e-06	9e-06	92909.0	-1.821668	-0.551051	2.399204	-21.216660393	-44.971346908	922.165954				0.0			
7023	68801155					9992831	2023	7	21	20	10	7	0	0.156953	-0.454957	9.779501							0.002402	0.003986	-0.002311							0.001571	-0.004551	0.097795	1.0	1.2e-05	2e-05	-1.2e-05	92903.0	-1.826332	-0.549212	2.415562	-21.216660411	-44.971346926	922.276826				0.0			
7123	68811155					9992705	2023	7	21	20	10	8	0	0.184449	-0.224577	9.732758							-0.002681	-0.005438	0.003316							0.001842	-0.002244	0.097328	1.0	-1.3e-05	-2.7e-05	1.7e-05	92909.0	-1.834449	-0.545977	2.433237	-21.216660427	-44.971346952	922.359789				0.0			
7223	68821155					9993578	2023	7	21	20	10	9	0	0.002224	-0.125941	9.694911							0.002918	0.000745	-0.001201							2.3e-05	-0.001261	0.096949	1.0	1.5e-05	4e-06	-6e-06	92901.0	-1.832846	-0.548987	2.446608	-21.216660458	-44.971346974	922.429324				0.0			
7323	68831155					9992452	2023	7	21	20	10	10	0	0.051401	-0.338395	9.884742							0.009295	0.01138	-0.001106							0.00052	-0.003389	0.098847	1.0	4.6e-05	5.7e-05	-6e-06	92908.0	-1.823975	-0.549318	2.461212	-21.216660473	-44.971346958	922.471481				0.0			
7423	68841155					9992325	2023	7	21	20	10	11	0	0.154316	-0.348745	9.860516							0.002513	-0.002598	0.0033							0.001542	-0.003489	0.098605	1.0	1.3e-05	-1.3e-05	1.6e-05	92908.0	-1.831137	-0.571314	2.479458	-21.216660489	-44.971346963	922.513177				0.0			
7523	68851155					9992199	2023	7	21	20	10	12	0	0.030257	-0.184899	9.749317							0.00156	0.004262	-0.000793							0.000305	-0.00185	0.097493	1.0	8e-06	2.1e-05	-4e-06	92901.0	-1.813148	-0.576066	2.48843	-21.216660483	-44.971346942	922.543621				0.0			
7623	68861155					9993073	2023	7	21	20	10	13	0	0.035283	-0.323643	9.922384							0.001297	-0.001517	-0.000464							0.000352	-0.003237	0.099224	1.0	6e-06	-8e-06	-2e-06	92897.0	-1.819752	-0.579763	2.507004	-21.216660506	-44.971346908	922.563523				0.0			
7723	68871155					9991946	2023	7	21	20	10	14	0	0.174269	-0.523569	9.805687							0.001604	-0.001965	0.002167							0.001742	-0.005236	0.098057	1.0	8e-06	-1e-05	1.1e-05	92901.0	-1.832423	-0.59123	2.530553	-21.21666053	-44.971346915	922.564548				0.0			
7823	68881155					9991819	2023	7	21	20	10	15	0	-0.050701	-0.109467	9.658358							0.003441	0.002215	-0.001829							-0.000506	-0.001096	0.096584	1.0	1.7e-05	1.1e-05	-9e-06	92901.0	-1.831658	-0.602294	2.541188	-21.216660566	-44.971346923	922.569662				0.0			
7923	68891155					9991693	2023	7	21	20	10	16	0	0.121114	-0.496509	9.798545							0.003069	0.007244	0.001109							0.001215	-0.004967	0.097985	1.0	1.5e-05	3.6e-05	6e-06	92904.0	-1.824468	-0.616817	2.558108	-21.216660588	-44.971346925	922.574319				0.0			
8023	68901155					9992566	2023	7	21	20	10	17	0	0.204481	-0.472137	9.820891							0.004868	0.006777	0.005372							0.002048	-0.004724	0.098209	1.0	2.4e-05	3.4e-05	2.7e-05	92905.0	-1.836333	-0.632522	2.571583	-21.216660618	-44.971346912	922.584821				0.0			
8123	68911155					9991440	2023	7	21	20	10	18	0	0.17719	-0.265262	9.819927							-1.6e-05	-0.002413	0.003363							0.001771	-0.002653	0.098199	1.0	-0.0	-1.2e-05	1.7e-05	92901.0	-1.849861	-0.64158	2.590372	-21.216660651	-44.971346903	922.593168				0.0			
8223	68921155					9991313	2023	7	21	20	10	19	0	0.075824	-0.341149	9.856481							0.002072	0.010174	-0.001788							0.000763	-0.003413	0.098565	1.0	1e-05	5.1e-05	-9e-06	92905.0	-1.866424	-0.65278	2.606593	-21.216660663	-44.971346921	922.596517				0.0			
8323	68931155					9991187	2023	7	21	20	10	20	0	0.214051	-0.507625	9.879869							0.006259	0.008107	0.001729							0.002145	-0.005079	0.098798	1.0	3.1e-05	4.1e-05	9e-06	92907.0	-1.866285	-0.658216	2.621789	-21.21666068	-44.971346926	922.592552				0.0			
8423	68941155					9992060	2023	7	21	20	10	21	0	0.153899	-0.369535	9.854174							0.001587	-0.000912	0.002083							0.001539	-0.003696	0.098542	1.0	8e-06	-5e-06	1e-05	92904.0	-1.856923	-0.663596	2.6431	-21.216660704	-44.971346917	922.582826				0.0			
8523	68951155					9990933	2023	7	21	20	10	22	0	-0.022109	-0.166607	9.700558							0.001735	0.0058	0.00039							-0.000218	-0.001667	0.097006	1.0	9e-06	2.9e-05	2e-06	92902.0	-1.859486	-0.645066	2.663421	-21.216660712	-44.971346945	922.57419				0.0			
8623	68961155					9990807	2023	7	21	20	10	23	0	0.211322	-0.51754	9.815096							0.001344	0.000453	0.003704							0.002114	-0.005176	0.098151	1.0	7e-06	2e-06	1.9e-05	92902.0	-1.858199	-0.652561	2.680081	-21.216660742	-44.971346936	922.570015				0.0			
8723	68971155					9990680	2023	7	21	20	10	24	0	0.212857	-0.353923	9.828608							0.002134	-0.005906	0.005657							0.002126	-0.00354	0.098286	1.0	1.1e-05	-3e-05	2.8e-05	92899.0	-1.847167	-0.646036	2.688452	-21.216660755	-44.971346936	922.56854				0.0			
8823	68981155					9991554	2023	7	21	20	10	25	0	0.05109	-0.124151	9.594694							0.004953	-0.000109	4.1e-05							0.000511	-0.001244	0.095947	1.0	2.5e-05	-1e-06	0.0	92905.0	-1.835215	-0.632618	2.692568	-21.216660775	-44.971346928	922.568073				0.0			
8923	68991155					9990427	2023	7	21	20	10	26	0	0.198373	-0.496824	9.843011							0.006913	0.004588	-0.001408							0.001986	-0.004972	0.09843	1.0	3.5e-05	2.3e-05	-7e-06	92899.0	-1.829675	-0.637077	2.703995	-21.216660806	-44.971346915	922.568839				0.0			
9023	69001155					9990301	2023	7	21	20	10	27	0	0.191263	-0.248908	9.780564							0.000613	-0.006708	0.004223							0.001909	-0.002489	0.097806	1.0	3e-06	-3.4e-05	2.1e-05	92905.0	-1.828292	-0.628268	2.713086	-21.216660821	-44.971346899	922.567966				0.0			
9123	69011155					9990175	2023	7	21	20	10	28	0	0.021055	-0.091117	9.658896							-0.004601	-0.002239	0.000748							0.000209	-0.000909	0.096589	1.0	-2.3e-05	-1.1e-05	4e-06	92903.0	-1.827091	-0.614189	2.729206	-21.216660271	-44.971346729	921.956952				0.0			
9223	69021155					9991048	2023	7	21	20	10	29	0	0.087864	-0.33185	9.900307							0.004518	0.007454	0.00237							0.000882	-0.003321	0.099003	1.0	2.3e-05	3.7e-05	1.2e-05	92909.0	-1.832955	-0.625238	2.741606	-21.216660294	-44.97134667	922.05498				0.0			
9323	69031156					9989922	2023	7	21	20	10	30	0	0.18031	-0.313127	9.867373							0.00217	-0.000862	0.001329							0.001803	-0.003132	0.098674	1.0	1.1e-05	-4e-06	7e-06	92906.0	-1.82873	-0.61654	2.752636	-21.216660308	-44.971346669	922.146037				0.0			
9423	69041156					9989796	2023	7	21	20	10	31	0	0.009701	-0.151798	9.633883							0.000383	0.000968	-0.004274							9.7e-05	-0.001518	0.096339	1.0	2e-06	5e-06	-2.1e-05	92908.0	-1.819282	-0.604545	2.763041	-21.216660327	-44.971346657	922.211348				0.0			
9523	69051156					9989669	2023	7	21	20	10	32	0	-0.039978	-0.226335	9.741748							0.00039	0.003873	0.002685							-0.000398	-0.002264	0.097417	1.0	2e-06	1.9e-05	1.3e-05	92902.0	-1.832585	-0.618876	2.78151	-21.21666035	-44.971346664	922.254581				0.0			
9623	69061156					9989543	2023	7	21	20	10	33	0	0.134801	-0.31705	9.616585							-0.00389	0.010937	0.001289							0.001353	-0.003169	0.096166	1.0	-1.9e-05	5.5e-05	6e-06	92907.0	-1.848549	-0.624379	2.685197	-21.216660381	-44.971346753	922.293153				0.0			
9723	69071156					9990417	2023	7	21	20	10	34	0	-2.38385	-0.481765	10.152369							4.8e-05	0.003582	0.179289							-0.023832	-0.004839	0.101524	1.0	0.0	1.8e-05	0.000896	92911.0	-2.00783	0.472616	6.718553	-21.216659512	-44.971343027	922.311514				0.0			
9823	69081156					9989290	2023	7	21	20	10	35	0	-1.9356	-1.00421	9.586487							-0.034458	0.004748	0.140136							-0.019347	-0.010039	0.095867	1.0	-0.000172	2.4e-05	0.000701	92907.0	-2.249367	1.358801	15.122008	-21.216652506	-44.97132279	922.366992				0.0			
9923	69091156					9989164	2023	7	21	20	10	36	0	-2.2026	-1.445878	9.705326							-0.016567	0.072605	0.137464							-0.021981	-0.014466	0.097062	1.0	-8.3e-05	0.000363	0.000687	92907.0	-3.650787	3.653048	20.605408	-21.216635244	-44.971286977	922.472257				0.0			
10023	69101156					9989038	2023	7	21	20	10	37	0	-1.970075	-0.790535	9.006586							0.040897	-0.017185	0.034338							-0.019707	-0.007927	0.090063	1.0	0.000204	-8.6e-05	0.000172	92904.0	-3.535585	7.068249	24.856779	-21.216607431	-44.971241891	922.871613				0.0			
10123	69111156					9989911	2023	7	21	20	10	38	0	-2.321488	-0.836991	9.552008							0.02379	0.052932	0.020197							-0.023189	-0.008384	0.095525	1.0	0.000119	0.000265	0.000101	92910.0	-2.732199	8.327452	26.485882	-21.216570564	-44.971188914	923.487806				0.0			
10223	69121156					9988785	2023	7	21	20	10	39	0	-2.100171	-0.124804	10.110154							0.025931	0.006941	-0.04051							-0.020998	-0.001257	0.101102	1.0	0.00013	3.5e-05	-0.000203	92909.0	-1.484655	9.713725	25.984171	-21.216525527	-44.971127209	923.712973				0.0			
10323	69131156					9988658	2023	7	21	20	10	40	0	-2.091638	-0.671936	9.743913							0.011146	-0.041308	-0.004798							-0.020937	-0.006724	0.097434	1.0	5.6e-05	-0.000207	-2.4e-05	92915.0	-0.913243	10.869887	24.64637	-21.216479907	-44.971060398	924.730201				0.0			
10423	69141156					9988532	2023	7	21	20	10	41	0	-0.00999	-0.652336	9.523747							-0.026854	0.030983	-0.003713							-8.5e-05	-0.006511	0.095238	1.0	-0.000134	0.000155	-1.9e-05	92902.0	-1.092662	9.436275	24.316675	-21.216433872	-44.970990713	925.655869				0.0			
10523	69151156					9989405	2023	7	21	20	10	42	0	-3.338984	-1.498639	8.576995							-0.039397	-0.005048	0.011706							-0.033391	-0.014971	0.085772	1.0	-0.000197	-2.5e-05	5.9e-05	92911.0	-1.74733	10.516968	24.629782	-21.216393138	-44.97092744	926.248233				0.0			
10623	69161156					9988279	2023	7	21	20	10	43	0	-1.689972	0.880031	10.587352							0.002151	-0.002886	-0.002446							-0.016901	0.008799	0.105873	1.0	1.1e-05	-1.4e-05	-1.2e-05	92907.0	-0.96423	10.378859	24.576469	-21.216349667	-44.970862868	926.400189				0.0			
10723	69171156					9988152	2023	7	21	20	10	44	0	-1.502491	-0.466417	9.958808							0.004534	0.020557	-0.006226							-0.015015	-0.004666	0.09959	1.0	2.3e-05	0.000103	-3.1e-05	92901.0	-1.008872	10.542065	24.528757	-21.216308552	-44.970800034	927.108441				0.0			
10823	69181156					9988026	2023	7	21	20	10	45	0	-1.463867	-1.059589	10.081987							-0.030109	0.00487	0.007695							-0.014636	-0.010581	0.100822	1.0	-0.000151	2.4e-05	3.8e-05	92907.0	-0.724111	10.338515	24.57905	-21.216267178	-44.970737359	927.662416				0.0			
10923	69191156					9988899	2023	7	21	20	10	46	0	-1.08285	-0.734417	10.863078							-0.016974	0.005811	0.056262							-0.010823	-0.007338	0.108632	1.0	-8.5e-05	2.9e-05	0.000281	92907.0	-1.314615	10.488513	25.954765	-21.216225986	-44.97067454	928.048618				0.0			
11023	69201156					9987772	2023	7	21	20	10	47	0	-2.195002	-2.825642	9.577165							0.006618	0.047501	0.314134							-0.021883	-0.028294	0.095776	0.999999	3.3e-05	0.000238	0.001571	92907.0	-0.580205	10.112265	39.672173	-21.216179159	-44.970615561	927.948977				0.0			
11123	69211156					9987646	2023	7	21	20	10	48	0	-1.122853	-1.261197	8.710242							-0.044609	0.080961	0.354767							-0.011171	-0.012612	0.08711	0.999998	-0.000223	0.000405	0.001774	92899.0	3.035912	9.45734	58.988781	-21.216121093	-44.970574229	928.427035				0.0			
11223	69221156					9987519	2023	7	21	20	10	49	0	-1.75118	-1.633346	7.959013							0.033353	0.026982	0.265035							-0.017479	-0.01637	0.07959	0.999999	0.000167	0.000135	0.001325	92907.0	4.060033	8.996894	77.666237	-21.216054217	-44.970555342	928.761706				0.0			
11323	69231156					9988393	2023	7	21	20	10	50	0	-1.825351	1.193117	10.466802							-0.001026	-0.027181	0.033277							-0.01827	0.011929	0.104665	1.0	-5e-06	-0.000136	0.000166	92909.0	4.631805	9.25443	85.481194	-21.215983131	-44.970556856	928.942561				0.0			
11423	69241156					9987266	2023	7	21	20	10	51	0	-2.142207	1.475809	10.40336							0.004274	0.004106	-0.08574							-0.021414	0.014765	0.104034	1.0	2.1e-05	2.1e-05	-0.000429	92907.0	2.949704	9.438725	84.425034	-21.215908297	-44.970565649	928.669541				0.0			
11523	69251156					9987140	2023	7	21	20	10	52	0	-1.852974	0.970852	8.335976							-0.007971	0.012023	-0.081667							-0.018521	0.009719	0.08336	1.0	-4e-05	6e-05	-0.000408	92908.0	1.593539	9.302583	79.948402	-21.215833692	-44.970570206	928.994675				0.0			
11623	69261156					9987013	2023	7	21	20	10	53	0	-1.332214	0.583236	9.204229							0.008471	0.033645	-0.111497							-0.013303	0.005836	0.092045	1.0	4.2e-05	0.000168	-0.000557	92901.0	0.564968	9.563678	74.59565	-21.215757135	-44.970568529	929.287761				0.0			
11723	69271157					9987887	2023	7	21	20	10	54	0	-1.545525	0.833456	9.994678							0.009773	0.022862	-0.094569							-0.01544	0.008337	0.099949	1.0	4.9e-05	0.000114	-0.000473	92905.0	0.258068	9.853832	68.004143	-21.21567825	-44.970558832	929.312663				0.0			
11823	69281157					9986760	2023	7	21	20	10	55	0	-1.575222	0.381409	8.502158							-0.036922	-0.00498	-0.067334							-0.015753	0.003835	0.08502	1.0	-0.000185	-2.5e-05	-0.000337	92901.0	-0.668319	9.477381	63.410336	-21.215601404	-44.970539674	929.683864				0.0			
11923	69291157					9986633	2023	7	21	20	10	56	0	-0.578106	-0.093739	10.28971							0.033672	-0.052601	-0.029626							-0.005808	-0.000954	0.102895	1.0	0.000168	-0.000263	-0.000148	92908.0	-0.489415	9.437359	61.267616	-21.215522884	-44.970514428	929.727308				0.0			
12023	69301157					9986506	2023	7	21	20	10	57	0	-1.493312	-0.18753	9.18619							0.00311	0.018956	-0.012327							-0.014925	-0.001876	0.091863	1.0	1.6e-05	9.5e-05	-6.2e-05	92898.0	-0.675301	9.724627	60.57024	-21.215445009	-44.970486487	930.123463				0.0			
12123	69311157					9987380	2023	7	21	20	10	58	0	-1.355527	-0.553889	9.818508							0.003457	0.003057	-0.009844							-0.013554	-0.00554	0.098185	1.0	1.7e-05	1.5e-05	-4.9e-05	92899.0	0.063804	9.433563	60.048367	-21.215365923	-44.970457307	930.457538				0.0			
12223	69321157					9986253	2023	7	21	20	10	59	0	-2.347463	0.529371	10.483613							-0.013056	0.008492	0.00126							-0.02347	0.0053	0.104837	1.0	-6.5e-05	4.2e-05	6e-06	92897.0	1.547728	10.573391	59.902542	-21.215284306	-44.970427217	930.55099				0.0			
12323	69331157					9986126	2023	7	21	20	11	0	0	-1.725815	0.620842	8.915097							0.020639	-0.006978	-0.009329							-0.017261	0.0062	0.089151	1.0	0.000103	-3.5e-05	-4.7e-05	92901.0	2.528761	10.755218	60.463539	-21.21520382	-44.970397423	930.982849				0.0			
12423	69341157					9986000	2023	7	21	20	11	1	0	-1.739476	-0.133505	9.602695							-0.014824	0.009164	0.001128							-0.01739	-0.001328	0.096028	1.0	-7.4e-05	4.6e-05	6e-06	92900.0	3.092911	10.561836	59.707615	-21.215122305	-44.970367502	931.224783				0.0			
12523	69351157					9986873	2023	7	21	20	11	2	0	-1.775436	0.459668	9.456191							-0.008962	-0.063093	0.02958							-0.017785	0.004598	0.094556	1.0	-4.5e-05	-0.000315	0.000148	92905.0	1.514492	9.036999	60.382862	-21.21503969	-44.970336671	931.217382				0.0			
12623	69361157					9985746	2023	7	21	20	11	3	0	-1.971122	0.037714	9.005427							0.027184	0.070358	0.020069							-0.01968	0.000363	0.090061	1.0	0.000136	0.000352	0.0001	92897.0	2.051817	8.398041	59.676178	-21.21495576	-44.970305745	930.945488				0.0			
12723	69371157					9985620	2023	7	21	20	11	4	0	-1.827381	-0.152861	7.911329							-0.070255	0.051079	0.011691							-0.018254	-0.001502	0.079118	1.0	-0.000351	0.000255	5.8e-05	92899.0	3.301905	9.166491	59.806358	-21.214870413	-44.97027398	931.045523				0.0			
12823	69381157					9985493	2023	7	21	20	11	5	0	-1.402163	0.182214	8.823538							-0.020393	0.04514	0.00798							-0.014002	0.001831	0.088238	1.0	-0.000102	0.000226	4e-05	92897.0	2.637931	9.456528	59.913887	-21.214783715	-44.970241098	931.326841				0.0			
12923	69391157					9986366	2023	7	21	20	11	6	0	-1.314396	-0.477141	9.955352							0.000388	-0.038895	-0.007098							-0.013163	-0.004771	0.099551	1.0	2e-06	-0.000194	-3.5e-05	92902.0	1.362921	9.454222	60.168285	-21.214695791	-44.970207485	931.772684				0.0			
13023	69401157					9985240	2023	7	21	20	11	7	0	-1.578977	0.455593	9.744156							-0.01839	-0.010193	0.001984							-0.015795	0.004565	0.09744	1.0	-9.2e-05	-5.1e-05	1e-05	92901.0	0.8058	9.44853	60.169125	-21.214606564	-44.97017397	932.30033				0.0			
13123	69411157					9985113	2023	7	21	20	11	8	0	-0.822652	0.242117	9.383536							-0.003657	-0.019685	-0.007542							-0.008236	0.002423	0.093835	1.0	-1.8e-05	-9.8e-05	-3.8e-05	92903.0	0.015698	8.812251	59.785542	-21.214518247	-44.970140351	932.865161				0.0			
13223	69421157					9984986	2023	7	21	20	11	9	0	-0.379746	-0.240359	9.870853							0.043153	0.02778	0.012218							-0.003784	-0.002425	0.098709	1.0	0.000216	0.000139	6.1e-05	92898.0	-0.463619	8.289313	59.26474	-21.21443527	-44.970107999	933.362708				0.0			
13323	69431157					9985860	2023	7	21	20	11	10	0	-1.758067	-0.389485	9.39688							0.043297	0.014185	0.021504							-0.017574	-0.003917	0.093969	1.0	0.000216	7.1e-05	0.000108	92899.0	1.454792	8.613847	59.936405	-21.214358959	-44.970078404	933.518129				0.0			
13423	69441157					9984733	2023	7	21	20	11	11	0	-1.548654	0.980012	9.855004							0.113532	-0.029453	-0.004901							-0.015501	0.009745	0.098553	1.0	0.000568	-0.000147	-2.5e-05	92894.0	4.300642	8.422869	60.581627	-21.214283757	-44.970051051	933.562427				0.0			
13523	69451157					9984607	2023	7	21	20	11	12	0	-2.069121	0.429986	8.951809							0.005483	-0.012777	-0.008653							-0.020697	0.004298	0.089517	1.0	2.7e-05	-6.4e-05	-4.3e-05	92898.0	3.973795	7.699614	60.064487	-21.21420601	-44.970022802	933.590722				0.0			
13623	69461157					9984480	2023	7	21	20	11	13	0	-1.638129	0.906148	9.824796							-0.039373	-0.012668	-0.002501							-0.016387	0.009081	0.098245	1.0	-0.000197	-6.3e-05	-1.3e-05	92897.0	3.34949	7.796622	59.864567	-21.214125613	-44.969992214	933.473814				0.0			
13723	69471157					9985354	2023	7	21	20	11	14	0	-1.722609	0.278237	8.417822							0.006657	-0.035809	-0.025219							-0.017241	0.002782	0.084175	1.0	3.3e-05	-0.000179	-0.000126	92889.0	1.809661	7.273823	58.815708	-21.214042369	-44.96995943	933.399937				0.0			
13823	69481157					9984228	2023	7	21	20	11	15	0	-1.512897	0.608036	9.048026							-0.024179	0.030161	-0.012746							-0.015115	0.006092	0.090482	1.0	-0.000121	0.000151	-6.4e-05	92886.0	1.123227	6.705113	57.997345	-21.213956003	-44.969923924	933.339226				0.0			
13923	69491157					9984101	2023	7	21	20	11	16	0	-0.173697	0.856697	9.671502							-0.016974	-0.006902	-0.006748							-0.00174	0.008575	0.096714	1.0	-8.5e-05	-3.5e-05	-3.4e-05	92891.0	0.417373	5.990628	57.547371	-21.213868661	-44.969886513	933.245113				0.0			
14023	69501158					9984975	2023	7	21	20	11	17	0	0.634998	-0.020394	9.074377							0.008077	-0.029825	0.004528							0.006336	-0.000207	0.090745	1.0	4e-05	-0.000149	2.3e-05	92896.0	0.046585	5.063345	57.315498	-21.213785452	-44.969850229	933.118827				0.0			
14123	69511158					9983848	2023	7	21	20	11	18	0	1.406358	0.023676	9.835306							0.007675	0.001222	0.069988							0.014064	0.000238	0.098353	1.0	3.8e-05	6e-06	0.00035	92885.0	-0.081635	4.707161	58.054306	-21.213714166	-44.969819212	932.878046				0.0			
14223	69521158					9983722	2023	7	21	20	11	19	0	0.796641	-1.382437	9.977194							0.059805	-0.012577	0.262439							0.007978	-0.013844	0.099768	0.999999	0.000299	-6.3e-05	0.001312	92886.0	2.195613	4.441234	67.329781	-21.21365903	-44.969798811	932.6921				0.0			
14323	69531158					9983595	2023	7	21	20	11	20	0	-0.388909	-1.553003	9.910892							-0.007276	-0.055121	0.417274							-0.003884	-0.015535	0.099108	0.999998	-3.6e-05	-0.000276	0.002086	92889.0	4.146108	1.422273	87.327835	-21.213613549	-44.969793754	932.075063				0.0			
14423	69541158					9984469	2023	7	21	20	11	21	0	-0.217284	-1.290135	9.233129							-0.067296	-0.070941	0.500689							-0.002173	-0.012876	0.092335	0.999997	-0.000336	-0.000355	0.002503	92890.0	4.330554	-3.124385	111.965813	-21.213570481	-44.969807269	931.508278				0.0			
14523	69551158					9983342	2023	7	21	20	11	22	0	-0.171934	-2.235151	9.70698							0.002359	-0.012806	0.395662							-0.001681	-0.022356	0.097069	0.999998	1.2e-05	-6.4e-05	0.001978	92889.0	-0.012008	-6.180906	139.070557	-21.21353232	-44.969843306	930.696086				0.0			
14623	69561158					9983216	2023	7	21	20	11	23	0	-0.150885	-0.236609	9.295898							-0.011106	-0.011139	0.065812							-0.001513	-0.002361	0.092959	1.0	-5.6e-05	-5.6e-05	0.000329	92884.0	-0.120012	-6.732455	149.712128	-21.213506181	-44.969901645	929.520608				0.0			
14723	69571158					9983090	2023	7	21	20	11	24	0	1.376715	-0.837175	8.976677							-0.026249	-0.018311	0.001515							0.013759	-0.00836	0.089769	1.0	-0.000131	-9.2e-05	8e-06	92884.0	-0.11056	-7.511938	152.338898	-21.213483184	-44.969972534	928.475466				0.0			
14823	69581158					9983963	2023	7	21	20	11	25	0	1.347969	-0.420149	8.940743							-0.028958	0.026913	0.003309							0.013492	-0.004188	0.089406	1.0	-0.000145	0.000135	1.7e-05	92887.0	-0.660412	-8.403234	152.983032	-21.213461026	-44.970046883	927.62916				0.0			
14923	69591158					9982837	2023	7	21	20	11	26	0	2.352402	-0.372131	9.352435							0.002178	0.001179	0.037847							0.023525	-0.003718	0.093524	1.0	1.1e-05	6e-06	0.000189	92885.0	-0.952142	-8.972075	155.112457	-21.213440555	-44.970119525	926.954368				0.0			
15023	69601158					9982710	2023	7	21	20	11	27	0	2.564016	0.290272	9.924232							0.005356	0.003737	0.009738							0.025642	0.002901	0.099242	1.0	2.7e-05	1.9e-05	4.9e-05	92889.0	1.28569	-9.536606	156.418762	-21.21342403	-44.970187929	926.474686				0.0			
15123	69611158					9982584	2023	7	21	20	11	28	0	3.306552	0.922083	9.752823							0.028525	0.005332	-0.074897							0.033072	0.009195	0.097529	1.0	0.000143	2.7e-05	-0.000374	92886.0	3.269862	-9.221207	154.831619	-21.213411509	-44.970248153	926.233664				0.0			
15223	69621158					9983457	2023	7	21	20	11	29	0	2.496399	1.589633	9.161156							0.014715	0.015045	-0.219829							0.024988	0.015862	0.091611	0.999999	7.4e-05	7.5e-05	-0.001099	92883.0	5.605906	-7.90401	145.382416	-21.213398925	-44.970293174	925.646587				0.0			
15323	69631158					9982331	2023	7	21	20	11	30	0	0.532178	1.667945	9.850477							-0.028143	-0.016224	-0.251652							0.005335	0.016687	0.098503	0.999999	-0.000141	-8.1e-05	-0.001258	92870.0	5.450766	-5.687004	131.794373	-21.213383206	-44.970324068	925.371729				0.0			
15423	69641158					9982205	2023	7	21	20	11	31	0	-0.645146	2.16905	8.953985							-0.004414	-0.032749	-0.322005							-0.006431	0.021703	0.089538	0.999999	-2.2e-05	-0.000164	-0.00161	92882.0	5.868316	-3.260274	115.907532	-21.213361922	-44.970348915	925.449615				0.0			
15523	69651158					9982078	2023	7	21	20	11	32	0	-0.718888	2.831563	10.118095							-0.031734	0.024413	-0.441957							-0.007114	0.028347	0.101177	0.999998	-0.000159	0.000122	-0.00221	92887.0	4.810773	-0.294379	93.575325	-21.213330189	-44.970367943	925.626431				0.0			
15623	69661158					9982952	2023	7	21	20	11	33	0	-0.936274	2.245875	9.842836							-0.017866	-0.006574	-0.360145							-0.009326	0.022484	0.098426	0.999998	-8.9e-05	-3.3e-05	-0.001801	92882.0	2.977412	1.296692	70.601593	-21.213287904	-44.970372306	925.638877				0.0			
15723	69671158					9981826	2023	7	21	20	11	34	0	-1.584539	0.562762	9.986354							-0.00042	0.025239	-0.04739							-0.015831	0.005632	0.099866	1.0	-2e-06	0.000126	-0.000237	92883.0	0.890298	2.01029	58.8293	-21.213239641	-44.970358948	925.743788				0.0			
15823	69681158					9981700	2023	7	21	20	11	35	0	-1.249694	-1.326086	10.584918							0.009975	-0.001475	0.099199							-0.012491	-0.013272	0.105848	1.0	5e-05	-7e-06	0.000496	92883.0	-0.261916	1.899199	59.540031	-21.213184577	-44.970336179	925.930885				0.0			
15923	69691158					9981574	2023	7	21	20	11	36	0	-1.27463	-0.700924	10.517651							0.062515	0.005666	0.037267							-0.012742	-0.007044	0.105175	1.0	0.000313	2.8e-05	0.000186	92883.0	0.07005	1.732848	63.167023	-21.213119785	-44.970312628	926.094191				0.0			
16023	69701158					9982448	2023	7	21	20	11	37	0	-0.295032	0.509659	9.756983							-0.013512	-0.028318	-0.070659							-0.002962	0.005104	0.097569	1.0	-6.8e-05	-0.000142	-0.000353	92882.0	2.040739	1.740784	61.107464	-21.213047446	-44.970290324	926.257865				0.0			
16123	69711158					9981322	2023	7	21	20	11	38	0	0.404275	0.554499	9.758774							0.003352	0.011635	-0.034775							0.004049	0.005543	0.097588	1.0	1.7e-05	5.8e-05	-0.000174	92880.0	0.581038	1.313828	57.843193	-21.212975663	-44.970263238	926.415724				0.0			
16223	69721158					9981196	2023	7	21	20	11	39	0	1.19874	0.387939	9.690857							0.004894	0.002869	-0.03259							0.011989	0.003875	0.096908	1.0	2.4e-05	1.4e-05	-0.000163	92877.0	0.74489	1.004982	55.72192	-21.212911995	-44.970235725	926.523679				0.0			
16323	69731158					9981070	2023	7	21	20	11	40	0	1.618824	0.26675	10.018972							0.025595	-0.000702	0.020545							0.016188	0.002656	0.10019	1.0	0.000128	-4e-06	0.000103	92872.0	2.000473	1.60783	55.965607	-21.212861184	-44.970212498	926.564011				0.0			
16423	69741159					9981943	2023	7	21	20	11	41	0	0.180728	-0.108385	9.401326							0.07066	0.015043	0.187133							0.001815	-0.001115	0.094013	0.999999	0.000353	7.5e-05	0.000936	92876.0	4.309254	2.69775	61.418892	-21.212824566	-44.970197496	926.955971				0.0			
16523	69751159					9980818	2023	7	21	20	11	42	0	-0.307912	-0.206292	9.763403							0.02236	-0.041894	0.402502							-0.003095	-0.00208	0.097633	0.999998	0.000112	-0.000209	0.002013	92882.0	7.723014	-1.002993	77.982582	-21.212794277	-44.970191079	926.982202				0.0			
16623	69761159					9980692	2023	7	21	20	11	43	0	-0.4927	-0.524632	8.3975							0.007057	-0.01008	0.405927							-0.004921	-0.005259	0.083975	0.999998	3.5e-05	-5e-05	0.00203	92880.0	5.954821	-5.464698	102.910492	-21.212761399	-44.970196483	927.098891				0.0			
16723	69771159					9981566	2023	7	21	20	11	44	0	0.554588	-1.408449	9.951996							-0.011081	-0.000994	0.332427							0.005569	-0.01407	0.099521	0.999999	-5.5e-05	-5e-06	0.001662	92878.0	0.981929	-9.806278	124.907768	-21.212724675	-44.9702204	926.908234				0.0			
16823	69781159					9980440	2023	7	21	20	11	45	0	0.828242	-1.477512	9.463764							0.012271	-0.004199	0.217415							0.008296	-0.014772	0.094637	0.999999	6.1e-05	-2.1e-05	0.001087	92880.0	-2.445713	-9.899761	141.711166	-21.212691933	-44.970264003	926.10999				0.0			
16923	69791159					9980314	2023	7	21	20	11	46	0	0.313742	-0.144307	11.192135							0.054482	-0.100672	0.002008							0.003081	-0.001474	0.111923	1.0	0.000272	-0.000503	1e-05	92872.0	-2.209276	-9.492457	147.405701	-21.212665302	-44.970325209	925.349273				0.0			
17023	69801159					9980188	2023	7	21	20	11	47	0	0.825094	-0.366204	8.790754							-0.014625	-0.023634	-0.018216							0.00824	-0.003656	0.087909	1.0	-7.3e-05	-0.000118	-9.1e-05	92872.0	-1.206864	-10.032114	146.402863	-21.212637713	-44.97039718	924.62096				0.0			
17123	69811159					9981062	2023	7	21	20	11	48	0	2.753317	-0.734005	9.414642							-0.011238	-0.030493	0.01517							0.027519	-0.007333	0.094151	1.0	-5.6e-05	-0.000152	7.6e-05	92867.0	-1.068523	-10.137384	146.519806	-21.212606507	-44.970474639	923.994064				0.0			
17223	69821159					9979936	2023	7	21	20	11	49	0	2.658586	-0.357412	9.503289							0.000133	-0.031952	0.004416							0.026571	-0.003574	0.095037	1.0	1e-06	-0.00016	2.2e-05	92870.0	-0.358738	-10.666568	146.673401	-21.21257444	-44.970555407	923.505162				0.0			
17323	69831159					9979810	2023	7	21	20	11	50	0	3.250374	-0.011512	9.383003							-0.009275	0.028852	0.001884							0.032517	-0.00011	0.093825	1.0	-4.6e-05	0.000144	9e-06	92874.0	0.033051	-10.94066	146.557892	-21.212544787	-44.970629714	922.826686				0.0			
17423	69841159					9979684	2023	7	21	20	11	51	0	3.84375	-0.338841	9.766934							-0.003158	0.002081	0.121917							0.038441	-0.003363	0.097669	1.0	-1.6e-05	1e-05	0.00061	92864.0	-0.346788	-10.551489	150.546555	-21.212520521	-44.970692911	922.652436				0.0			
17523	69851159					9980558	2023	7	21	20	11	52	0	1.783769	-2.077388	8.405229							0.021111	0.014652	0.389618							0.017884	-0.020748	0.084049	0.999998	0.000106	7.3e-05	0.001948	92871.0	-2.094663	-9.653347	165.996307	-21.212507559	-44.970743796	922.693371				0.0			
17623	69861159					9979432	2023	7	21	20	11	53	0	0.747201	-3.183076	9.33485							0.046654	-0.008349	0.477037							0.007544	-0.031835	0.093341	0.999997	0.000233	-4.2e-05	0.002385	92865.0	-4.347262	-8.03066	-168.315155	-21.21251155	-44.970791616	922.852091				0.0			
17723	69871159					9979306	2023	7	21	20	11	54	0	0.311473	-3.701243	10.589165							0.062746	-0.000489	0.376428							0.003184	-0.03704	0.10588	0.999998	0.000314	-2e-06	0.001882	92872.0	-5.793153	-4.46712	-141.579803	-21.21253699	-44.970837104	922.889924				0.0			
17823	69881159					9979180	2023	7	21	20	11	55	0	0.843437	-0.419495	10.39035							0.051959	-0.046086	0.139007							0.008413	-0.004216	0.103904	1.0	0.00026	-0.00023	0.000695	92872.0	-2.6317	-3.617619	-126.660393	-21.212580238	-44.970869815	923.166048				0.0			
17923	69891159					9980054	2023	7	21	20	11	56	0	-0.206183	-0.157607	9.888143							-0.015145	-0.019664	0.044401							-0.002071	-0.001569	0.098881	1.0	-7.6e-05	-9.8e-05	0.000222	92868.0	-2.016252	-3.64732	-121.181221	-21.212630278	-44.97089398	923.442619				0.0			
18023	69901159					9978929	2023	7	21	20	11	57	0	-1.152672	0.107675	9.106099							-0.018773	0.05473	0.002874							-0.011502	0.001085	0.091064	1.0	-9.4e-05	0.000274	1.4e-05	92863.0	-2.28711	-2.977175	-120.261299	-21.212685402	-44.970916625	923.645796				0.0			
18123	69911159					9978803	2023	7	21	20	11	58	0	-1.03671	-1.21279	9.240802							0.000178	-0.04969	-0.018452							-0.010391	-0.012127	0.092405	1.0	1e-06	-0.000248	-9.2e-05	92865.0	-2.613799	-2.797033	-120.684227	-21.212748543	-44.970941961	923.793828				0.0			
18223	69921159					9978677	2023	7	21	20	11	59	0	-0.934021	-0.756817	9.439827							-0.009529	-0.030006	0.005849							-0.009354	-0.007564	0.094397	1.0	-4.8e-05	-0.00015	2.9e-05	92867.0	-2.470503	-3.072989	-120.616592	-21.212821168	-44.970971486	923.862563				0.0			
18323	69931159					9979551	2023	7	21	20	12	0	0	-0.43532	-0.488932	10.171576							0.052412	-0.030178	0.000443							-0.004369	-0.004916	0.101714	1.0	0.000262	-0.000151	2e-06	92872.0	-2.516733	-3.178478	-119.077232	-21.212905342	-44.971004758	924.084997				0.0			
18423	69941159					9978425	2023	7	21	20	12	1	0	0.5995	0.019059	9.264403							0.005259	-0.0266	-0.011405							0.005983	0.000188	0.092645	1.0	2.6e-05	-0.000133	-5.7e-05	92867.0	-0.764397	-3.969958	-119.527969	-21.212997288	-44.971038694	924.128326				0.0			
18523	69951159					9978300	2023	7	21	20	12	2	0	0.139592	-0.200973	9.314505							-0.044915	0.019503	-0.010657							0.001405	-0.001989	0.093145	1.0	-0.000225	9.8e-05	-5.3e-05	92870.0	-1.096439	-4.022786	-120.373947	-21.213093621	-44.971075821	924.256254				0.0			
18623	69961159					9979174	2023	7	21	20	12	3	0	0.571814	-0.359452	9.739534							0.016984	-0.022909	-0.001089							0.005707	-0.003603	0.097396	1.0	8.5e-05	-0.000115	-5e-06	92858.0	-2.355692	-5.051731	-120.672684	-21.213189781	-44.971115392	924.160374				0.0			
18723	69971160					9978048	2023	7	21	20	12	4	0	1.573573	-0.075604	9.654296							0.021777	0.014355	0.007259							0.015743	-0.000766	0.096542	1.0	0.000109	7.2e-05	3.6e-05	92858.0	-1.231794	-5.811056	-120.273476	-21.213290059	-44.97115529	924.219684				0.0			
18823	69981160					9977922	2023	7	21	20	12	5	0	1.360684	-0.255315	9.448421							0.038874	-0.010044	0.01629							0.013602	-0.00257	0.094484	1.0	0.000194	-5e-05	8.1e-05	92867.0	-0.768885	-5.935561	-118.709564	-21.213387918	-44.971192872	924.225815				0.0			
18923	69991160					9977797	2023	7	21	20	12	6	0	1.157573	0.473252	9.638489							0.005359	0.015932	-0.018755							0.011584	0.004729	0.096384	1.0	2.7e-05	8e-05	-9.4e-05	92861.0	-0.016851	-6.192173	-119.238411	-21.213481031	-44.971226293	924.318737				0.0			
19023	70001160					9978671	2023	7	21	20	12	7	0	1.199757	-0.257379	9.091797							-0.009154	0.027841	-0.006789							0.01201	-0.00257	0.090916	1.0	-4.6e-05	0.000139	-3.4e-05	92857.0	-0.016317	-6.229082	-120.000389	-21.213567751	-44.971259246	924.301081				0.0			
19123	70011160					9977545	2023	7	21	20	12	8	0	1.73141	0.415462	9.116248							0.025733	0.048701	-0.000993							0.017336	0.004143	0.091159	1.0	0.000129	0.000244	-5e-06	92864.0	0.791782	-6.031513	-119.973969	-21.213651464	-44.971291406	924.426102				0.0			
19223	70021160					9977420	2023	7	21	20	12	9	0	2.355662	-0.130289	8.204762							-0.010661	0.039248	-0.00187							0.023573	-0.001299	0.082043	1.0	-5.3e-05	0.000196	-9e-06	92860.0	0.888593	-6.683534	-120.15226	-21.213729878	-44.971321563	924.521396				0.0			
19323	70031160					9977294	2023	7	21	20	12	10	0	2.44145	0.07895	9.186844							0.001631	-0.011341	0.00402							0.024409	0.000789	0.09187	1.0	8e-06	-5.7e-05	2e-05	92857.0	0.919631	-7.196587	-120.746078	-21.21379897	-44.971348893	924.571612				0.0			
19423	70041160					9978168	2023	7	21	20	12	11	0	3.534764	-0.349498	9.442609							-0.035001	-0.008037	0.009536							0.035344	-0.003477	0.094428	1.0	-0.000175	-4e-05	4.8e-05	92851.0	-0.282186	-7.795916	-120.688637	-21.213854294	-44.971371601	924.655317				0.0			
19523	70051160					9977043	2023	7	21	20	12	12	0	2.966303	-0.183474	9.624612							-0.023541	0.010337	-0.012758							0.029668	-0.001825	0.096245	1.0	-0.000118	5.2e-05	-6.4e-05	92854.0	-2.640918	-7.766812	-120.52272	-21.21389182	-44.971387586	924.854157				0.0			
19623	70061160					9976917	2023	7	21	20	12	13	0	0.656473	-0.121423	9.655023							0.004987	0.035386	-0.15025							0.006581	-0.001222	0.096549	1.0	2.5e-05	0.000177	-0.000751	92854.0	-3.041063	-7.226973	-124.332397	-21.213915858	-44.971398379	925.093566				0.0			
19723	70071160					9977791	2023	7	21	20	12	14	0	0.507173	1.05692	9.675833							-0.046838	0.007039	-0.428977							0.005098	0.010581	0.096756	0.999998	-0.000234	3.5e-05	-0.002145	92861.0	-1.689779	-6.789576	-142.373962	-21.213939369	-44.971413406	925.261762				0.0			
19823	70081160					9976666	2023	7	21	20	12	15	0	0.433524	3.134414	9.146022							0.020471	-0.054081	-0.614793							0.004407	0.031321	0.091465	0.999995	0.000102	-0.00027	-0.003074	92861.0	1.974455	-7.77849	-174.205414	-21.213958408	-44.971441567	925.308491				0.0			
19923	70091160					9976540	2023	7	21	20	12	16	0	0.280296	1.965134	9.969464							-0.088706	-0.013385	-0.277552							0.002824	0.019692	0.099686	0.999999	-0.000444	-6.7e-05	-0.001388	92851.0	3.013464	-7.680367	154.830612	-21.213959814	-44.971483424	925.185544				0.0			
20023	70101160					9977415	2023	7	21	20	12	17	0	0.388442	0.600731	9.541465							-0.047151	0.004871	-0.074993							0.003889	0.006028	0.095413	1.0	-0.000236	2.4e-05	-0.000375	92855.0	1.685748	-8.070459	145.680084	-21.213942531	-44.971532303	924.938389				0.0			
20123	70111160					9976289	2023	7	21	20	12	18	0	0.359178	-0.163291	9.690136							-0.025042	0.01413	-0.022074							0.003598	-0.001621	0.096901	1.0	-0.000125	7.1e-05	-0.00011	92854.0	0.286442	-7.442738	143.01506	-21.213916845	-44.971587391	924.595767				0.0			
20223	70121160					9976163	2023	7	21	20	12	19	0	0.610743	0.128159	9.604322							-0.029533	0.02447	0.003098							0.006119	0.001296	0.096042	1.0	-0.000148	0.000122	1.5e-05	92849.0	-0.022544	-7.614748	141.889038	-21.213886161	-44.971648977	924.212689				0.0			
20323	70131160					9976038	2023	7	21	20	12	20	0	0.67006	-0.164973	10.005876							-0.024282	-0.018029	0.002687							0.006692	-0.001637	0.10006	1.0	-0.000121	-9e-05	1.3e-05	92853.0	-0.919305	-7.523034	141.945694	-21.213851771	-44.971716263	923.797881				0.0			
20423	70141160					9976912	2023	7	21	20	12	21	0	0.95281	0.314775	9.699779							-0.000343	0.011503	-0.025118							0.009534	0.003147	0.096997	1.0	-2e-06	5.8e-05	-0.000126	92854.0	-0.677024	-7.577599	140.910202	-21.213814555	-44.971789194	923.337833				0.0			
20523	70151160					9975787	2023	7	21	20	12	22	0	0.765015	0.249804	10.153733							-0.035479	0.019192	-0.031622							0.00766	0.002515	0.101536	1.0	-0.000177	9.6e-05	-0.000158	92849.0	-1.261109	-7.582599	139.192352	-21.213773324	-44.971866152	922.848014				0.0			
20623	70161160					9975661	2023	7	21	20	12	23	0	1.230515	0.281325	9.756611							0.049492	-0.021483	-0.037115							0.012295	0.002787	0.097568	1.0	0.000247	-0.000107	-0.000186	92848.0	-1.769209	-6.930025	136.979095	-21.213727219	-44.971945493	922.381475				0.0			
20723	70171160					9976536	2023	7	21	20	12	24	0	0.84367	0.61531	7.949356							-0.016254	0.006917	0.000121							0.008439	0.00616	0.079493	1.0	-8.1e-05	3.5e-05	1e-06	92849.0	1.999608	-7.195022	135.038605	-21.213678263	-44.972026014	922.11732				0.0			
20823	70181160					9975410	2023	7	21	20	12	25	0	0.678788	0.551125	10.307477							-0.087801	-0.015702	-0.020077							0.00678	0.005556	0.103073	1.0	-0.000439	-7.9e-05	-0.0001	92845.0	1.66867	-8.219378	134.024261	-21.213626049	-44.972107636	921.829657				0.0			
20923	70191160					9975285	2023	7	21	20	12	26	0	1.786178	-0.175054	9.175112							-0.029107	-0.051817	0.005581							0.017838	-0.001737	0.091756	1.0	-0.000146	-0.000259	2.8e-05	92846.0	-0.751203	-8.923793	132.628357	-21.213569161	-44.97219003	921.378558				0.0			
21023	70201161					9975159	2023	7	21	20	12	27	0	1.662616	0.193958	9.868469							0.01933	0.020252	-0.022868							0.016636	0.001928	0.098683	1.0	9.7e-05	0.000101	-0.000114	92849.0	-1.12418	-9.003513	132.03569	-21.213510708	-44.972272565	921.060262				0.0			
21123	70211161					9976034	2023	7	21	20	12	28	0	2.541518	0.475108	9.734621							0.028266	0.007438	-0.04162							0.02542	0.004732	0.097346	1.0	0.000141	3.7e-05	-0.000208	92844.0	-0.36443	-8.600947	130.185776	-21.213452772	-44.972351489	920.7799				0.0			
21223	70221161					9974908	2023	7	21	20	12	29	0	3.512741	0.74481	9.78648							0.00207	0.027453	-0.050043							0.035143	0.007438	0.09786	1.0	1e-05	0.000137	-0.00025	92842.0	0.742324	-7.592574	127.282356	-21.213398738	-44.972420915	920.839147				0.0			
21323	70231161					9974783	2023	7	21	20	12	30	0	0.888917	0.503524	9.744995							0.017185	0.056716	-0.040285							0.008918	0.005025	0.097448	1.0	8.6e-05	0.000284	-0.000201	92845.0	1.163464	-5.372686	124.809044	-21.21335253	-44.97247411	921.09206				0.0			
21423	70241161					9975658	2023	7	21	20	12	31	0	0.972506	2.345767	10.46466							0.000916	0.04318	-0.30531							0.009783	0.023442	0.104645	0.999999	5e-06	0.000216	-0.001527	92851.0	2.554474	-2.38624	117.611694	-21.213311131	-44.972517099	921.568022				0.0			
21523	70251161					9974532	2023	7	21	20	12	32	0	-0.778933	2.066063	10.417297							-0.018138	0.019977	-0.462753							-0.007731	0.020688	0.104172	0.999997	-9.1e-05	0.0001	-0.002314	92843.0	2.336619	-0.521667	93.52063	-21.213262859	-44.972547571	922.241338				0.0			
21623	70261161					9974407	2023	7	21	20	12	33	0	-1.267179	1.364653	9.979587							-0.036648	0.022358	-0.182477							-0.012648	0.013676	0.099795	1.0	-0.000183	0.000112	-0.000912	92843.0	1.513903	-0.047011	72.250473	-21.213204634	-44.97255371	922.913128				0.0			
21723	70271161					9975282	2023	7	21	20	12	34	0	-1.460645	0.667141	10.623111							-0.014728	-0.028173	-0.114123							-0.014618	0.006688	0.106229	1.0	-7.4e-05	-0.000141	-0.000571	92837.0	1.390083	0.861497	65.186546	-21.213136551	-44.97254203	923.673781				0.0			
21823	70281161					9974157	2023	7	21	20	12	35	0	-1.583957	-0.061197	10.021381							-0.038245	-0.008581	-0.050779							-0.015844	-0.000589	0.100213	1.0	-0.000191	-4.3e-05	-0.000254	92843.0	-0.557958	0.916198	60.158775	-21.213058478	-44.972518367	924.35658				0.0			
21923	70291161					9974031	2023	7	21	20	12	36	0	-1.864876	-0.440316	10.348687							0.013167	0.010962	-0.009561							-0.018643	-0.004409	0.103488	1.0	6.6e-05	5.5e-05	-4.8e-05	92841.0	-1.376787	0.318417	59.000553	-21.212969959	-44.972484975	924.908686				0.0			
22023	70301161					9973906	2023	7	21	20	12	37	0	-1.094758	-0.021098	10.281404							0.002293	-0.008288	0.009328							-0.010952	-0.000213	0.102814	1.0	1.1e-05	-4.1e-05	4.7e-05	92845.0	-1.778108	0.386081	58.93993	-21.212870654	-44.972446947	925.321605				0.0			
22123	70311161					9974781	2023	7	21	20	12	38	0	0.012749	0.106017	10.141966							-0.027587	0.007954	-0.008205							0.000132	0.001074	0.10142	1.0	-0.000138	4e-05	-4.1e-05	92838.0	-1.316221	-0.550992	57.97427	-21.212763944	-44.972405383	925.739773				0.0			
22223	70321161					9973655	2023	7	21	20	12	39	0	0.241498	-0.118454	9.366886							0.012194	0.016724	0.000984							0.002423	-0.00119	0.093669	1.0	6.1e-05	8.4e-05	5e-06	92839.0	-1.763466	-0.096871	57.746552	-21.212660655	-44.972363642	926.318582				0.0			
22323	70331161					9973530	2023	7	21	20	12	40	0	-0.440379	-0.490455	10.882013							0.006958	-0.01088	0.021427							-0.004409	-0.004909	0.10882	1.0	3.5e-05	-5.4e-05	0.000107	92837.0	-2.357197	0.24836	58.121166	-21.212555186	-44.972320996	926.825415				0.0			
22423	70341161					9974405	2023	7	21	20	12	41	0	0.097971	-0.362434	9.556302							0.001276	-0.007071	-0.004246							0.000976	-0.003625	0.095563	1.0	6e-06	-3.5e-05	-2.1e-05	92839.0	-1.13954	0.120588	59.097374	-21.212446641	-44.972279345	927.273062				0.0			
22523	70351161					9973280	2023	7	21	20	12	42	0	0.687754	0.482284	10.509332							0.001183	0.006255	-0.005733							0.006881	0.004822	0.105093	1.0	6e-06	3.1e-05	-2.9e-05	92831.0	-0.63339	-0.049247	59.031097	-21.212336296	-44.972238546	927.608739				0.0			
22623	70361161					9973155	2023	7	21	20	12	43	0	0.452366	-0.140386	10.060516							0.018539	0.025896	-0.015216							0.004537	-0.001414	0.100604	1.0	9.3e-05	0.000129	-7.6e-05	92835.0	0.087523	-0.464824	58.832779	-21.212228472	-44.972198563	927.842866				0.0			
22723	70371161					9973030	2023	7	21	20	12	44	0	1.599969	-0.425956	10.864491							-0.008322	0.04687	-0.003395							0.016025	-0.004255	0.108641	1.0	-4.2e-05	0.000234	-1.7e-05	92830.0	0.009831	-0.507554	58.532196	-21.212126612	-44.972159853	927.976812				0.0			
22823	70381161					9973904	2023	7	21	20	12	45	0	2.119767	1.037671	9.25249							0.072993	0.045753	-0.112108							0.021225	0.010331	0.092524	1.0	0.000365	0.000229	-0.000561	92829.0	0.977173	-0.591933	56.509682	-21.212040869	-44.972126794	928.393006				0.0			
22923	70391161					9972779	2023	7	21	20	12	46	0	0.591364	3.346288	8.742633							0.09502	0.082856	-0.348646							0.006008	0.033411	0.08744	0.999998	0.000475	0.000414	-0.001743	92827.0	3.227284	1.846434	44.850868	-21.211973184	-44.972094482	928.53158				0.0			
